[
  {
    "name": "中川区役所駐⾞場",
    "city": "名古屋市",
    "pref": "愛知",
    "map_url": null,
    "youtube": "https://www.youtube.com/watch?v=1Cpl6fHD8Fc",
    "lat": 35.14135933643438,
    "lon": 136.8550256262547,
    "categories": [],
    "embed": true
  },
  {
    "name": "久屋大通公園",
    "city": "名古屋市",
    "pref": "愛知",
    "map_url": "https://www.cametan.com/map/4001.html",
    "youtube": "https://www.youtube.com/watch?v=pHFh8pbPO10",
    "lat": 35.17246546954034,
    "lon": 136.90827671332752,
    "categories": [],
    "embed": true
  },
  {
    "name": "名古屋駅",
    "city": "名古屋市",
    "pref": "愛知",
    "map_url": "https://www.cametan.com/map/3392.html",
    "youtube": "https://www.youtube.com/watch?v=O5_qaUlVKtg",
    "lat": 35.17277113194066,
    "lon": 136.87957355281745,
    "categories": [],
    "embed": false
  },
  {
    "name": "名古屋駅 (CTV)",
    "city": "名古屋市",
    "pref": "愛知",
    "map_url": null,
    "youtube": "https://www.youtube.com/watch?v=bEv1d0w_WJo",
    "lat": 35.17211605385448,
    "lon": 136.87957487141074,
    "categories": [],
    "embed": true
  },
  {
    "name": "本山ボウル (ボーリング場)",
    "city": "名古屋市",
    "pref": "愛知",
    "map_url": null,
    "youtube": "https://www.youtube.com/@motoyamako/live",
    "lat": 35.164262720558575,
    "lon": 136.9632180602593,
    "categories": [],
    "embed": false
  },
  {
    "name": "中川運河",
    "city": "名古屋市",
    "pref": "愛知",
    "map_url": "https://www.cametan.com/map/3961.html",
    "youtube": "https://www.youtube.com/watch?v=822Uf8VdxsA",
    "lat": 35.161605236793676,
    "lon": 136.88504596283983,
    "categories": [],
    "embed": true
  },
  {
    "name": "名古屋駅太閤通口",
    "city": "名古屋市",
    "pref": "愛知",
    "map_url": "https://www.cametan.com/map/3958.html",
    "youtube": "https://www.youtube.com/watch?v=cJd9IIu2vio",
    "lat": 35.1711902453523,
    "lon": 136.88001288853,
    "categories": [],
    "embed": true
  },
  {
    "name": "名古屋高速 新洲崎JCT付近",
    "city": "名古屋市",
    "pref": "愛知",
    "map_url": "https://www.cametan.com/map/3960.html",
    "youtube": "https://www.youtube.com/watch?v=gtJywT5srns",
    "lat": 35.164516692359314,
    "lon": 136.89010132080656,
    "categories": [],
    "embed": true
  },
  {
    "name": "笠寺駅付近",
    "city": "名古屋市",
    "pref": "愛知",
    "map_url": null,
    "youtube": "https://www.youtube.com/watch?v=HeD0lx2Qm_k",
    "lat": 35.092202654370496,
    "lon": 136.9284651860353,
    "categories": [],
    "embed": true
  },
  {
    "name": "Whitepit南区東海通店 (洗車場)",
    "city": "名古屋市",
    "pref": "愛知",
    "map_url": null,
    "youtube": "https://www.youtube.com/watch?v=izd85ixu89Q",
    "lat": 35.10748168089842,
    "lon": 136.9187884939905,
    "categories": [],
    "embed": true
  },
  {
    "name": "名古屋駅周辺",
    "city": "名古屋市",
    "pref": "愛知",
    "map_url": "https://www.cametan.com/map/3959.html",
    "youtube": "https://www.youtube.com/watch?v=X304dz1zrfU",
    "lat": 35.16184540106788,
    "lon": 136.88534403541678,
    "categories": [],
    "embed": true
  },
  {
    "name": "柳生川 豊橋市南松山町",
    "city": "豊橋市",
    "pref": "愛知",
    "map_url": null,
    "youtube": "https://www.youtube.com/watch?v=lUdJs2Aoo2I",
    "lat": 34.754880248173784,
    "lon": 137.38916969632373,
    "categories": [],
    "embed": false
  },
  {
    "name": "豊川稲荷",
    "city": "豊橋市",
    "pref": "愛知",
    "map_url": null,
    "youtube": "https://www.youtube.com/watch?v=IF9aMSrHTAM",
    "lat": 34.824519453831485,
    "lon": 137.39467624901948,
    "categories": [],
    "embed": true
  },
  {
    "name": "上地御嶽山",
    "city": "岡崎市",
    "pref": "愛知",
    "map_url": null,
    "youtube": "https://www.youtube.com/watch?v=VS-5FE99nf4",
    "lat": 34.90359106310165,
    "lon": 137.15874629648465,
    "categories": [],
    "embed": true
  },
  {
    "name": "山田農園ドッグラン",
    "city": "岡崎市",
    "pref": "愛知",
    "map_url": null,
    "youtube": "https://www.youtube.com/@yamadanoen-dogrun/live",
    "lat": 34.94681208653257,
    "lon": 137.20445815220458,
    "categories": [],
    "embed": false
  },
  {
    "name": "一宮駅東口交差点",
    "city": "一宮市",
    "pref": "愛知",
    "map_url": null,
    "youtube": "https://www.youtube.com/live/ZsmVPAvJ3ik",
    "lat": 35.30380370732407,
    "lon": 136.80261636513902,
    "categories": [],
    "embed": true
  },
  {
    "name": "県営名古屋空港",
    "city": "春日井市",
    "pref": "愛知",
    "map_url": null,
    "youtube": "https://www.youtube.com/watch?v=LRgGBlcL4KU",
    "lat": 35.25187164804484,
    "lon": 136.92154231594657,
    "categories": [],
    "embed": true
  },
  {
    "name": "豊川進雄神社",
    "city": "豊川市",
    "pref": "愛知",
    "map_url": null,
    "youtube": "https://www.youtube.com/watch?v=B5HGavwR3zk",
    "lat": 34.82578003491952,
    "lon": 137.39641122336735,
    "categories": [],
    "embed": true
  },
  {
    "name": "ウォーターパレスKC 駐車場",
    "city": "碧南市",
    "pref": "愛知",
    "map_url": null,
    "youtube": "https://youtube.com/channel/UC0mgxFZfkQdWF-86uTewBmA/live",
    "lat": 34.98486887983624,
    "lon": 137.02510827315152,
    "categories": [],
    "embed": true
  },
  {
    "name": "刈谷知立環境組合クリーンセンター 正門",
    "city": "碧南市",
    "pref": "愛知",
    "map_url": null,
    "youtube": "https://www.youtube.com/watch?v=LmW2QnyBnmA",
    "lat": 34.98602240212856,
    "lon": 137.02428388150273,
    "categories": [],
    "embed": true
  },
  {
    "name": "足助病院前",
    "city": "豊田市",
    "pref": "愛知",
    "map_url": null,
    "youtube": "https://www.youtube.com/@hospitalasuke3125/live",
    "lat": 35.13086261099877,
    "lon": 137.3059024182236,
    "categories": [],
    "embed": false
  },
  {
    "name": "東幡豆海岸 トンボロ干潟",
    "city": "西尾市",
    "pref": "愛知",
    "map_url": null,
    "youtube": "https://www.youtube.com/watch?v=1TG6jxYggFY",
    "lat": 34.784055931415224,
    "lon": 137.1480013436313,
    "categories": [],
    "embed": true
  }
]